{
  "date": "September 7th - September 9th, 2021",
  "timestamp": "September 7th, 2021",
  "id": "Lsgt4mh2dQrdWrn",
  "type": "summits",
  "image": "2021/09/07/9c414ac6-cbce-4dd4-9e8a-ac3d36b9e833.jpeg",
  "location": "Buena Vista and Alma",
  "next": "OfpW2rt8VHawxvu",
  "previous": "9sTY7zOYLEgzg14",
  "description": [],
  "categories": [
    "summit",
    "day hike",
    "14'er"
  ],
  "title": "Colorado",
  "direction": "out-and-back",
  "itinerary": {
    "map": "north-america",
    "outbound": [
      {
        "date": "September 6",
        "start": {
          "name": "Denver",
          "municipality": "Colorado"
        },
        "end": {
          "name": "Mount Shavano Trailhead",
          "municipality": "Buena Vista, Colorado"
        },
        "type": "driving",
        "distance": "122",
        "duration": {
          "hours": "2",
          "minutes": "13"
        }
      }
    ],
    "during": [
      {
        "date": "September 7",
        "start": {
          "name": "Mount Shavano Trailhead",
          "municipality": "Buena Vista, Colorado"
        },
        "end": {
          "name": "Mount Shavano",
          "municipality": "Summit"
        },
        "type": "walking",
        "distance": null,
        "duration": null
      },
      {
        "date": "September 7",
        "start": {
          "name": "Mount Shavano Trailhead",
          "municipality": "Buena Vista, Colorado"
        },
        "end": {
          "name": "Dispersed Camping",
          "municipality": "Buena Vista, Colorado"
        },
        "type": null,
        "distance": null,
        "duration": null
      },
      {
        "date": "September 8",
        "start": {
          "name": "Dispersed Camping",
          "municipality": "Buena Vista, Colorado"
        },
        "end": {
          "name": "Kite Lake Trailhead",
          "municipality": "Alma, Colorado"
        },
        "type": "driving",
        "distance": "44",
        "duration": {
          "hours": "0",
          "minutes": "46"
        }
      },
      {
        "date": "September 9",
        "start": {
          "name": "Kite Lake Trailhead",
          "municipality": "Alma, Colorado"
        },
        "end": {
          "name": "De-Ca-Li",
          "municipality": "Summit"
        },
        "type": "walking",
        "distance": null,
        "duration": null
      }
    ],
    "inbound": [
      {
        "date": "September 9",
        "start": {
          "name": "Kite Lake Trailhead",
          "municipality": "Alma, Colorado"
        },
        "end": {
          "name": "Denver",
          "municipality": "Colorado"
        },
        "type": "driving",
        "distance": "91",
        "duration": {
          "hours": "1",
          "minutes": "46"
        }
      }
    ]
  },
  "lodging": "camping",
  "printId": []
}
